{
    "type": "FeatureCollection",
    "features": [
        {
            "type": "Feature",
            "geometry": {
                "type": "Point",
                "coordinates": [-9.1602, 38.7484]
            },
            "properties": {
                "title": "Centro Hospitalar Universitário Lisboa Norte - Hospital de Santa Maria"
            }
        },
        {
            "type": "Feature",
            "geometry": {
                "type": "Point",
                "coordinates": [-9.1479, 38.7369]
            },
            "properties": {
                "title": "Hospital Curry Cabral"
            }
        },
        {
            "type": "Feature",
            "geometry": {
                "type": "Point",
                "coordinates": [-9.1393, 38.7186]
            },
            "properties": {
                "title": "Centro Hospitalar Universitário Lisboa Central - Hospital de São José"
            }
        },
        {
            "type": "Feature",
            "geometry": {
                "type": "Point",
                "coordinates": [-8.6043, 41.1792]
            },
            "properties": {
                "title": "Centro Hospitalar Universitário de São João - Hospital de São João"
            }
        },
        {
            "type": "Feature",
            "geometry": {
                "type": "Point",
                "coordinates": [-8.6136, 41.1466]
            },
            "properties": {
                "title": "Centro Hospitalar Universitário do Porto - Hospital de Santo António"
            }
        },
        {
            "type": "Feature",
            "geometry": {
                "type": "Point",
                "coordinates": [-7.9332, 37.0174]
            },
            "properties": {
                "title": "Centro Hospitalar Universitário do Algarve - Hospital de Faro"
            }
        },
        {
            "type": "Feature",
            "geometry": {
                "type": "Point",
                "coordinates": [-9.4217, 38.6958]
            },
            "properties": {
                "title": "Hospital Dr. José de Almeida - Cascais"
            }
        },
        {
            "type": "Feature",
            "geometry": {
                "type": "Point",
                "coordinates": [-7.9135, 40.6610]
            },
            "properties": {
                "title": "Centro Hospitalar Tondela-Viseu - Hospital de São Teotónio"
            }
        },
        {
            "type": "Feature",
            "geometry": {
                "type": "Point",
                "coordinates": [-8.6553, 40.6443]
            },
            "properties": {
                "title": "Centro Hospitalar do Baixo Vouga - Hospital Infante D. Pedro"
            }
        },
        {
            "type": "Feature",
            "geometry": {
                "type": "Point",
                "coordinates": [-8.8077, 39.7473]
            },
            "properties": {
                "title": "Centro Hospitalar de Leiria - Hospital de Santo André"
            }
        },
        {
            "type": "Feature",
            "geometry": {
                "type": "Point",
                "coordinates": [-7.4909, 39.8221]
            },
            "properties": {
                "title": "ULS Castelo Branco - Hospital Amato Lusitano"
            }
        },
        {
            "type": "Feature",
            "geometry": {
                "type": "Point",
                "coordinates": [-8.4196, 40.2108]
            },
            "properties": {
                "title": "Centro Hospitalar e Universitário de Coimbra - Hospital Universitário de Coimbra"
            }
        },
        {
            "type": "Feature",
            "geometry": {
                "type": "Point",
                "coordinates": [-8.4265, 41.5566]
            },
            "properties": {
                "title": "Hospital de Braga"
            }
        },
        {
            "type": "Feature",
            "geometry": {
                "type": "Point",
                "coordinates": [-9.2618, 39.0916]
            },
            "properties": {
                "title": "Centro Hospitalar do Oeste - Unidade de Torres Vedras"
            }
        },
        {
            "type": "Feature",
            "geometry": {
                "type": "Point",
                "coordinates": [-7.4952, 40.2769]
            },
            "properties": {
                "title": "ULS da Cova da Beira - Hospital Pêro da Covilhã"
            }
        },
        {
            "type": "Feature",
            "geometry": {
                "type": "Point",
                "coordinates": [-8.6151, 41.5317]
            },
            "properties": {
                "title": "Unidade Hospitalar de Barcelos"
            }
        },
        {
            "type": "Feature",
            "geometry": {
                "type": "Point",
                "coordinates": [-8.6822, 41.767]
            },
            "properties": {
                "title": "Unidade Local de Saúde do Alto Minho - Unidade de Ponte de Lima"
            }
        },
        {
            "type": "Feature",
            "geometry": {
                "type": "Point",
                "coordinates": [-7.4323, 39.2876]
            },
            "properties": {
                "title": "ULS do Norte Alentejano - Hospital Doutor José Maria Grande"
            }
        },
        {
            "type": "Feature",
            "geometry": {
                "type": "Point",
                "coordinates": [-7.8652, 38.0151]
            },
            "properties": {
                "title": "ULS do Baixo Alentejo - Hospital José Joaquim Fernandes"
            }
        },
        {
            "type": "Feature",
            "geometry": {
                "type": "Point",
                "coordinates": [-9.1462, 38.7206]
            },
            "properties": {
                "title": "Hospital de Santa Marta"
            }
        },
        {
            "type": "Feature",
            "geometry": {
                "type": "Point",
                "coordinates": [-9.1379, 38.7327]
            },
            "properties": {
                "title": "Hospital Dona Estefânia"
            }
        },
        {
            "type": "Feature",
            "geometry": {
                "type": "Point",
                "coordinates": [-9.1570, 38.7621]
            },
            "properties": {
                "title": "Hospital Pulido Valente"
            }
        },
        {
            "type": "Feature",
            "geometry": {
                "type": "Point",
                "coordinates": [-9.1445, 38.7480]
            },
            "properties": {
                "title": "Hospital Júlio de Matos"
            }
        },
        {
            "type": "Feature",
            "geometry": {
                "type": "Point",
                "coordinates": [-9.1353, 38.7244]
            },
            "properties": {
                "title": "Hospital Miguel Bombarda"
            }
        },
        {
            "type": "Feature",
            "geometry": {
                "type": "Point",
                "coordinates": [-9.1938, 38.7037]
            },
            "properties": {
                "title": "Hospital Egas Moniz"
            }
        },
        {
            "type": "Feature",
            "geometry": {
                "type": "Point",
                "coordinates": [-9.1955, 38.7075]
            },
            "properties": {
                "title": "Hospital de São Francisco Xavier"
            }
        },
        {
            "type": "Feature",
            "geometry": {
                "type": "Point",
                "coordinates": [-9.1312, 38.7257]
            },
            "properties": {
                "title": "Hospital Garcia de Orta (Unidade de Lisboa)"
            }
        },
        {
            "type": "Feature",
            "geometry": {
                "type": "Point",
                "coordinates": [-9.1971, 38.7246]
            },
            "properties": {
                "title": "Hospital do Restelo"
            }
        },
        {
            "type": "Feature",
            "geometry": {
                "type": "Point",
                "coordinates": [-9.1352, 38.7112]
            },
            "properties": {
                "title": "Hospital de Arroios"
            }
        },
    
            {
                "type": "Feature",
                "geometry": {
                    "type": "Point",
                    "coordinates": [-8.6136, 41.1466]
                },
                "properties": {
                    "title": "Centro Hospitalar Universitário do Porto - Hospital de Santo António"
                }
            },
            {
                "type": "Feature",
                "geometry": {
                    "type": "Point",
                    "coordinates": [-8.6052, 41.1579]
                },
                "properties": {
                    "title": "Instituto Português de Oncologia do Porto Francisco Gentil"
                }
            },
            {
                "type": "Feature",
                "geometry": {
                    "type": "Point",
                    "coordinates": [-8.6043, 41.1792]
                },
                "properties": {
                    "title": "Centro Hospitalar Universitário de São João - Hospital de São João"
                }
            },
            {
                "type": "Feature",
                "geometry": {
                    "type": "Point",
                    "coordinates": [-8.6291, 41.1621]
                },
                "properties": {
                    "title": "Hospital de Magalhães Lemos"
                }
            },
            {
                "type": "Feature",
                "geometry": {
                    "type": "Point",
                    "coordinates": [-8.6216, 41.1466]
                },
                "properties": {
                    "title": "Maternidade Júlio Dinis"
                }
            },
            {
                "type": "Feature",
                "geometry": {
                    "type": "Point",
                    "coordinates": [-8.6108, 41.1496]
                },
                "properties": {
                    "title": "Hospital Joaquim Urbano"
                }
            },
            {
                "type": "Feature",
                "geometry": {
                    "type": "Point",
                    "coordinates": [-8.6105, 41.1493]
                },
                "properties": {
                    "title": "Centro Hospitalar Conde Ferreira"
                }
            },
            {
                "type": "Feature",
                "geometry": {
                    "type": "Point",
                    "coordinates": [-8.4964, 41.1957]
                },
                "properties": {
                    "title": "Hospital Nossa Senhora da Conceição de Valongo"
                }
            },
            {
                "type": "Feature",
                "geometry": {
                    "type": "Point",
                    "coordinates": [-8.6822, 41.1865]
                },
                "properties": {
                    "title": "Hospital Pedro Hispano - Matosinhos"
                }
            },
            {
                "type": "Feature",
                "geometry": {
                    "type": "Point",
                    "coordinates": [-8.0781, 41.2726]
                },
                "properties": {
                    "title": "Hospital de São Gonçalo - Amarante"
                }
            }

        
    ]
    
}
